[
  {"city":"Bengaluru", "latitude":12.971599,"longitude":77.594566},
  {"city":"Hyderabad", "latitude":17.387140,"longitude":78.491684},
  {"city":"Coimbatore", "latitude":11.004556,"longitude":76.961632},
  {"city":"New Delhi", "latitude":28.644800,"longitude":77.216721},
  {"city":"Noida", "latitude":28.535517,"longitude":77.391029},
  {"city":"Ahmedabad", "latitude":23.033863,"longitude":72.585022}
]
